[
  {"name": "Алматы", "lat": 43.2220, "lng": 76.8512, "address": "TODO"},
  {"name": "Астана", "lat": 51.1605, "lng": 71.4704, "address": "TODO"},
  {"name": "Шымкент", "lat": 42.3417, "lng": 69.5901, "address": "TODO"},
  {"name": "Актобе", "lat": 50.2839, "lng": 57.1660, "address": "TODO"},
  {"name": "Караганда", "lat": 49.8068, "lng": 73.0857, "address": "TODO"},
  {"name": "Павлодар", "lat": 52.2870, "lng": 76.9674, "address": "TODO"},
  {"name": "Усть-Каменогорск", "lat": 49.9483, "lng": 82.6275, "address": "TODO"},
  {"name": "Тараз", "lat": 42.8995, "lng": 71.3695, "address": "TODO"}
]
